id,title,category,year,decade,start_date,end_date,lat,lon,regions,deaths,injuries,evacuated,homeless,insured_cost,homes_destroyed,buildings_destroyed,impact_score,url
1,Environmental - South-Eastern Australia Heatwave 1939,Environmental,1939,1930,1/1/1939 0:00,1/16/1939 0:00,-33.1315155,135.5578918,Victoria;New South Wales;South Australia,400.0,0.0,0.0,0.0,0.0,0.0,0.0,4000.0,http://www.emknowledge.gov.au/resource/?id=1
5,Bushfire - Sydney and Southern New South Wales,Bushfire,1939,1930,1/13/1939 0:00,1/14/1939 0:00,-34.42498398,150.8931274,New South Wales,6.0,0.0,0.0,0.0,0.0,0.0,0.0,60.0,http://www.emknowledge.gov.au/resource/?id=5
7,Bushfire - Wandilo,Bushfire,1958,1950,4/5/1958 0:00,4/6/1958 0:00,-37.73846054,140.7737122,South Australia,8.0,3.0,0.0,0.0,0.0,0.0,0.0,86.0,http://www.emknowledge.gov.au/resource/?id=7
12,Cyclone George,Cyclone,2007,2000,3/3/2007 0:00,3/8/2007 0:00,-20.31162643,118.5752563,Western Australia,3.0,20.0,0.0,0.0,8000000.0,0.0,0.0,70.0,http://www.emknowledge.gov.au/resource/?id=12
14,Hail - Hunter Valley,Hail,2006,2000,10/31/2006 0:00,10/31/2006 0:00,-32.82806015,151.6847076,New South Wales,0.0,0.0,0.0,0.0,51000000.0,0.0,0.0,0.0,http://www.emknowledge.gov.au/resource/?id=14
17,Severe Storm -  New South Wales East Coast Low,Severe Storm,2007,2000,6/8/2007 0:00,6/10/2007 0:00,-32.92599487,151.7788696,New South Wales,9.0,0.0,6000.0,0.0,1480000000.0,0.0,0.0,390.0,http://www.emknowledge.gov.au/resource/?id=17
18,Flood - Gippsland June 2007,Flood,2007,2000,6/27/2007 0:00,7/2/2007 0:00,-38.2273941,146.7471313,Victoria,1.0,0.0,0.0,0.0,15000000.0,0.0,0.0,10.0,http://www.emknowledge.gov.au/resource/?id=18
22,Bushfire - Great Divide Complex,Bushfire,2006,2000,12/1/2006 0:00,2/7/2007 0:00,-36.71800995,147.1452179,Victoria,1.0,1400.0,0.0,0.0,0.0,51.0,0.0,2912.0,http://www.emknowledge.gov.au/resource/?id=22
23,Hail - Lismore,Hail,2007,2000,10/8/2007 0:00,10/9/2007 0:00,-28.80650711,153.276947,New South Wales,0.0,17.0,0.0,0.0,97000000.0,0.0,0.0,34.0,http://www.emknowledge.gov.au/resource/?id=23
24,Severe Storm - South-East Queensland and Northern New South Wales,Severe Storm,2007,2000,10/7/2007 0:00,10/12/2007 0:00,-28.80579758,153.2768707,Queensland,0.0,0.0,0.0,0.0,97000000.0,0.0,0.0,0.0,http://www.emknowledge.gov.au/resource/?id=24
28,Hail - Orange,Hail,1986,1980,1/21/1986 0:00,1/21/1986 0:00,-33.28357697,149.1012726,New South Wales,0.0,0.0,0.0,0.0,25000000.0,0.0,0.0,0.0,http://www.emknowledge.gov.au/resource/?id=28
31,Cyclone - Mackay 1918,Cyclone,1918,1910,1/20/1918 0:00,1/22/1918 0:00,-21.17188644,149.2073364,Queensland,30.0,0.0,0.0,0.0,0.0,0.0,0.0,300.0,http://www.emknowledge.gov.au/resource/?id=31
32,"Severe Storm - Hunter Valley, Tablelands and Southern Highlands",Severe Storm,1998,1990,6/23/1998 0:00,6/24/1998 0:00,-32.7326355,151.5579376,New South Wales,1.0,0.0,0.0,0.0,12000000.0,0.0,0.0,10.0,http://www.emknowledge.gov.au/resource/?id=32
34,Hail - Western Sydney,Hail,1990,1990,3/18/1990 0:00,3/18/1990 0:00,-33.91615677,151.0357513,New South Wales,0.0,25.0,0.0,100.0,319000000.0,0.0,0.0,70.0,http://www.emknowledge.gov.au/resource/?id=34
35,Severe Storm - Sydney Jan 1937,Severe Storm,1937,1930,1/25/1937 0:00,1/25/1937 0:00,-33.8731575,151.2069397,New South Wales,4.0,0.0,0.0,0.0,0.0,0.0,0.0,40.0,http://www.emknowledge.gov.au/resource/?id=35
36,Bushfire - Dandenong Ranges and Mornington Peninsula,Bushfire,1997,1990,1/19/1997 0:00,1/21/1997 0:00,-37.88122559,145.3422699,Victoria,3.0,40.0,800.0,0.0,29000000.0,43.0,0.0,236.0,http://www.emknowledge.gov.au/resource/?id=36
41,Cyclone Winifred,Cyclone,1986,1980,1/27/1986 0:00,2/5/1986 0:00,-17.69570732,146.1140442,Queensland,3.0,0.0,0.0,0.0,40000000.0,0.0,0.0,30.0,http://www.emknowledge.gov.au/resource/?id=41
48,"Severe Storm - Newcastle, Sydney, Wollongong",Severe Storm,1978,1970,2/10/1978 0:00,2/11/1978 0:00,-32.92599487,151.7788696,New South Wales,0.0,8.0,0.0,0.0,15000000.0,0.0,0.0,16.0,http://www.emknowledge.gov.au/resource/?id=48
50,"Flood - Queensland - Charleville, New South Wales - Nyngan, Victoria - Gippsland",Flood,1990,1990,4/21/1990 0:00,4/30/1990 0:00,-31.54109001,147.1975708,New South Wales;Victoria;Queensland,6.0,0.0,0.0,5000.0,30000000.0,0.0,0.0,1060.0,http://www.emknowledge.gov.au/resource/?id=50
58,Earthquake - Newcastle,Earthquake,1989,1980,12/28/1989 0:00,12/29/1989 0:00,-32.92592239,151.7787018,New South Wales,13.0,160.0,0.0,0.0,862000000.0,0.0,0.0,450.0,http://www.emknowledge.gov.au/resource/?id=58
59,Severe Storm - Nyngan,Severe Storm,1998,1990,1/5/1998 0:00,1/5/1998 0:00,-31.53523827,147.1920776,New South Wales,0.0,1.0,0.0,0.0,12000000.0,4.0,0.0,10.0,http://www.emknowledge.gov.au/resource/?id=59
60,Environmental - Heatwave Dec 1909,Environmental,1909,1900,12/9/1909 0:00,2/10/1910 0:00,-33.87330246,151.2070618,Queensland;New South Wales;Tasmania;Australian Capital Territory;Northern Territory;South Australia;Western Australia;Victoria,109.0,0.0,0.0,0.0,0.0,0.0,0.0,1090.0,http://www.emknowledge.gov.au/resource/?id=60
63,"Bushfire - North Coast, Hunter and Sydney",Bushfire,1993,1990,12/27/1993 0:00,1/16/1994 0:00,-29.58524513,152.7775879,New South Wales,4.0,0.0,0.0,0.0,59000000.0,206.0,0.0,452.0,http://www.emknowledge.gov.au/resource/?id=63
66,Flood - Western Sydney,Flood,1974,1970,4/24/1974 0:00,4/24/1974 0:00,-33.75153351,150.6912231,New South Wales,1.0,0.0,0.0,0.0,20000000.0,0.0,0.0,10.0,http://www.emknowledge.gov.au/resource/?id=66
67,Flood - Widespread Coastal,Flood,1929,1920,2/20/1929 0:00,2/28/1929 0:00,-23.37712288,150.5100708,Queensland,3.0,0.0,100.0,0.0,0.0,0.0,0.0,35.0,http://www.emknowledge.gov.au/resource/?id=67
68,Bushfire - Southern Victoria and Dandenong Ranges,Bushfire,1962,1960,1/14/1962 0:00,2/16/1962 0:00,-37.85620117,145.3159332,Victoria,8.0,0.0,0.0,2500.0,0.0,454.0,0.0,1488.0,http://www.emknowledge.gov.au/resource/?id=68
69,Severe Storm - Ballarat,Severe Storm,1989,1980,11/16/1989 0:00,11/16/1989 0:00,-37.56158829,143.8562317,Victoria,0.0,0.0,0.0,0.0,20000000.0,0.0,0.0,0.0,http://www.emknowledge.gov.au/resource/?id=69
70,"Flood - Sydney, Newcastle and Wollongong",Flood,1978,1970,2/10/1978 0:00,2/10/1978 0:00,-33.59460449,150.7513123,New South Wales,6.0,0.0,0.0,0.0,15000000.0,0.0,0.0,60.0,http://www.emknowledge.gov.au/resource/?id=70
74,Flood - Southern Queensland and Northern New South Wales,Flood,1996,1990,5/1/1996 0:00,5/9/1996 0:00,-27.37176704,150.4907227,New South Wales;Queensland,5.0,20.0,0.0,0.0,31000000.0,0.0,0.0,90.0,http://www.emknowledge.gov.au/resource/?id=74
87,Bushfire - New South Wales and Other States,Bushfire,1974,1970,12/1/1974 0:00,2/1/1975 0:00,-31.49797058,145.8381958,New South Wales,3.0,0.0,0.0,0.0,0.0,0.0,0.0,30.0,http://www.emknowledge.gov.au/resource/?id=87
88,Severe Storm - Sydney and Region 2001,Severe Storm,2001,2000,1/15/2001 0:00,1/15/2001 0:00,-33.84646606,151.2307587,New South Wales,0.0,0.0,0.0,0.0,12000000.0,0.0,0.0,0.0,http://www.emknowledge.gov.au/resource/?id=88
91,Flood - Boonah,Flood,1991,1990,2/7/1991 0:00,2/11/1991 0:00,-27.99690247,152.6821594,Queensland,3.0,10.0,0.0,0.0,0.0,0.0,0.0,50.0,http://www.emknowledge.gov.au/resource/?id=91
93,Hail - Brisbane and South East Queensland,Hail,1995,1990,11/3/1995 0:00,11/6/1995 0:00,-27.47093391,153.0234985,Queensland,1.0,0.0,0.0,0.0,40000000.0,0.0,0.0,10.0,http://www.emknowledge.gov.au/resource/?id=93
95,Environmental - Eastern Australia Drought,Environmental,1982,1980,4/1/1982 0:00,3/1/1983 0:00,-28.92163086,145.612793,Tasmania;Queensland;New South Wales;Australian Capital Territory;Northern Territory;South Australia;Western Australia;Victoria,0.0,0.0,0.0,0.0,3000000000.0,0.0,0.0,0.0,http://www.emknowledge.gov.au/resource/?id=95
102,Environmental - Drought 1918,Environmental,1918,1910,1/1/1918 0:00,1/2/1920 0:00,-28.13012886,137.2961426,Northern Territory;Queensland;New South Wales;Australian Capital Territory;South Australia;Western Australia;Tasmania;Victoria,0.0,0.0,0.0,0.0,0.0,0.0,0.0,0.0,http://www.emknowledge.gov.au/resource/?id=102
103,Bushfire - Central and Southern Victoria,Bushfire,1952,1950,1/1/1952 0:00,3/1/1952 0:00,-36.68604279,147.1508789,Victoria,10.0,0.0,0.0,0.0,0.0,0.0,0.0,100.0,http://www.emknowledge.gov.au/resource/?id=103
107,"Flood - Melbourne, Yarra Valley",Flood,1934,1930,11/30/1934 0:00,12/2/1934 0:00,-37.81361008,144.9630585,Victoria,36.0,0.0,0.0,0.0,0.0,400.0,0.0,1160.0,http://www.emknowledge.gov.au/resource/?id=107
114,Flood - Eastern Australia,Flood,1974,1970,1/25/1974 0:00,4/1/1974 0:00,-27.47084808,153.0234222,Tasmania;Queensland;New South Wales;South Australia;Victoria,14.0,0.0,0.0,0.0,68000000.0,0.0,0.0,140.0,http://www.emknowledge.gov.au/resource/?id=114
117,Flood - Melbourne and Central Victoria,Flood,1999,1990,12/26/1999 0:00,12/28/1999 0:00,-37.73792267,144.9650879,Victoria,0.0,0.0,0.0,100.0,10000000.0,0.0,0.0,20.0,http://www.emknowledge.gov.au/resource/?id=117
118,Severe Storm - Illawarra and Sydney,Severe Storm,1996,1990,8/31/1996 0:00,8/31/1996 0:00,-34.23423004,150.9191895,New South Wales,0.0,0.0,0.0,0.0,10000000.0,0.0,0.0,0.0,http://www.emknowledge.gov.au/resource/?id=118
122,Flood - Gulf Country,Flood,1990,1990,12/23/1990 0:00,1/7/1991 0:00,-18.16151047,139.9163818,Queensland,6.0,0.0,0.0,0.0,32000000.0,0.0,0.0,60.0,http://www.emknowledge.gov.au/resource/?id=122
123,Bushfire - Warenda Station Hughenden,Bushfire,1917,1910,9/29/1917 0:00,9/29/1917 0:00,-20.82608414,144.2017365,Queensland,3.0,0.0,0.0,0.0,0.0,0.0,0.0,30.0,http://www.emknowledge.gov.au/resource/?id=123
125,Bushfire - Widespread Victoria,Bushfire,1906,1900,1/1/1906 0:00,2/15/1906 0:00,-38.60105896,146.3005219,Victoria,12.0,0.0,0.0,0.0,0.0,0.0,0.0,120.0,http://www.emknowledge.gov.au/resource/?id=125
127,Flood - North and Central Queensland,Flood,2000,2000,2/5/2000 0:00,2/28/2000 0:00,-16.92339897,145.7738495,Queensland,0.0,10.0,0.0,0.0,12000000.0,0.0,0.0,20.0,http://www.emknowledge.gov.au/resource/?id=127
128,Cyclone Althea,Cyclone,1971,1970,12/24/1971 0:00,12/27/1971 0:00,-19.25200272,146.8206024,Queensland,3.0,25.0,0.0,0.0,25000000.0,0.0,0.0,80.0,http://www.emknowledge.gov.au/resource/?id=128
129,Bushfire - Australian Capital Territory and South-West New South Wales,Bushfire,1951,1950,10/26/1951 0:00,1/31/1952 0:00,-35.11680222,147.3616333,New South Wales,13.0,0.0,0.0,0.0,0.0,0.0,0.0,130.0,http://www.emknowledge.gov.au/resource/?id=129
130,Severe Storm - Cape York and Townsville,Severe Storm,1934,1930,3/12/1934 0:00,3/13/1934 0:00,-16.07979584,145.4644775,Queensland,75.0,0.0,0.0,0.0,0.0,0.0,0.0,750.0,http://www.emknowledge.gov.au/resource/?id=130
131,Bushfire - Ash Wednesday,Bushfire,1983,1980,2/16/1983 0:00,2/18/1983 0:00,-37.40233612,144.5871124,Victoria;South Australia,75.0,1500.0,0.0,9000.0,176000000.0,2000.0,0.0,9550.0,http://www.emknowledge.gov.au/resource/?id=131
132,Flood - Burdekin River,Flood,1940,1940,4/7/1940 0:00,4/9/1940 0:00,-20.61478996,146.9641113,Queensland,3.0,0.0,0.0,0.0,0.0,0.0,0.0,30.0,http://www.emknowledge.gov.au/resource/?id=132
133,"Flood - Gympie, Southern Queensland, and Eastern New South Wales",Flood,1989,1980,4/25/1989 0:00,4/30/1989 0:00,-26.1891,152.66593,Queensland,3.0,0.0,0.0,0.0,0.0,0.0,0.0,30.0,http://www.emknowledge.gov.au/resource/?id=133
136,"Severe Storm - Sydney, Hunter Valley and Northern Regions",Severe Storm,2001,2000,12/3/2001 0:00,12/3/2001 0:00,-33.59631729,150.7569733,New South Wales,2.0,0.0,0.0,0.0,30000000.0,0.0,0.0,20.0,http://www.emknowledge.gov.au/resource/?id=136
140,Bushfire - Lara and Melbourne Fringe,Bushfire,1969,1960,1/8/1969 0:00,1/9/1969 0:00,-38.0235939,144.4078674,Victoria,23.0,100.0,0.0,800.0,0.0,230.0,21.0,1092.0,http://www.emknowledge.gov.au/resource/?id=140
150,Severe Storm - Kosciuszko NP,Severe Storm,1999,1990,8/7/1999 0:00,8/11/1999 0:00,-36.33946609,148.5736084,New South Wales,4.0,0.0,0.0,0.0,0.0,0.0,0.0,40.0,http://www.emknowledge.gov.au/resource/?id=150
151,Bushfire - Blue Mountains and Illawarra,Bushfire,1968,1960,10/15/1968 0:00,12/3/1968 0:00,-33.59318924,150.5356445,New South Wales,14.0,0.0,0.0,0.0,0.0,0.0,0.0,140.0,http://www.emknowledge.gov.au/resource/?id=151
152,Environmental - Tasmania and Victoria Drought,Environmental,1996,1990,10/1/1996 0:00,9/30/2000 0:00,-38.33088303,141.6000366,Tasmania;Victoria;South Australia,0.0,0.0,0.0,0.0,0.0,0.0,0.0,0.0,http://www.emknowledge.gov.au/resource/?id=152
154,Bushfire - Black Tuesday Tasmania,Bushfire,1967,1960,2/7/1967 0:00,2/7/1967 0:00,-43.16512299,146.2417603,Tasmania,62.0,0.0,0.0,0.0,14000000.0,1400.0,0.0,3420.0,http://www.emknowledge.gov.au/resource/?id=154
158,Environmental - Drought 1913,Environmental,1913,1910,1/1/1913 0:00,12/31/1915 0:00,-35.33641434,143.5621185,Northern Territory;Queensland;New South Wales;Australian Capital Territory;South Australia;Western Australia;Tasmania;Victoria,0.0,0.0,0.0,0.0,0.0,0.0,0.0,0.0,http://www.emknowledge.gov.au/resource/?id=158
173,Severe Storm - Ipswich,Severe Storm,1998,1990,4/10/1998 0:00,4/10/1998 0:00,-27.61335373,152.7585449,Queensland,3.0,0.0,0.0,0.0,0.0,0.0,0.0,30.0,http://www.emknowledge.gov.au/resource/?id=173
177,Cyclone Joan,Cyclone,1975,1970,12/8/1975 0:00,12/9/1975 0:00,-13.41099358,125.859375,Western Australia,0.0,0.0,0.0,20.0,20000000.0,0.0,0.0,4.0,http://www.emknowledge.gov.au/resource/?id=177
180,Hail - Toowoomba,Hail,1976,1970,1/9/1976 0:00,1/9/1976 0:00,-27.56375313,151.9540558,Queensland,0.0,0.0,0.0,0.0,12000000.0,0.0,0.0,0.0,http://www.emknowledge.gov.au/resource/?id=180
181,"Flood - Sydney,  North Coast, and North Western Districts",Flood,1950,1950,1/16/1950 0:00,1/19/1950 0:00,-28.32561302,153.395401,New South Wales,10.0,0.0,0.0,0.0,0.0,0.0,0.0,100.0,http://www.emknowledge.gov.au/resource/?id=181
186,"Flood - Brisbane, Sunshine Coast, and Gold Coast",Flood,2001,2000,3/9/2001 0:00,3/11/2001 0:00,-27.96529579,153.3924866,Queensland,2.0,0.0,50.0,0.0,37000000.0,0.0,0.0,22.5,http://www.emknowledge.gov.au/resource/?id=186
188,Severe Storm - Adelaide,Severe Storm,1986,1980,12/6/1986 0:00,12/8/1986 0:00,-34.92745972,138.5999908,South Australia,0.0,0.0,0.0,50.0,10000000.0,0.0,0.0,10.0,http://www.emknowledge.gov.au/resource/?id=188
191,Severe Storm - Western Sydney,Severe Storm,1976,1970,11/9/1976 0:00,11/9/1976 0:00,-33.85551834,150.862793,New South Wales,0.0,10.0,0.0,0.0,732000000.0,0.0,0.0,20.0,http://www.emknowledge.gov.au/resource/?id=191
192,Hail - Singleton,Hail,1996,1990,12/11/1996 0:00,12/11/1996 0:00,-32.56196976,151.1753235,New South Wales,0.0,0.0,0.0,0.0,49000000.0,0.0,0.0,0.0,http://www.emknowledge.gov.au/resource/?id=192
195,Bushfire - Western Sydney and Central Coast,Bushfire,1991,1990,10/16/1991 0:00,1/31/1992 0:00,-33.65120697,151.0015869,New South Wales,2.0,0.0,0.0,0.0,12000000.0,14.0,0.0,48.0,http://www.emknowledge.gov.au/resource/?id=195
196,Bushfire - Central Victoria and Alpine Fires,Bushfire,1985,1980,1/14/1985 0:00,1/28/1985 0:00,-37.04653931,143.736969,Victoria,3.0,0.0,0.0,600.0,0.0,180.0,0.0,510.0,http://www.emknowledge.gov.au/resource/?id=196
197,Environmental - Northern Australia,Environmental,1951,1950,1/1/1951 0:00,4/1/1954 0:00,-25.16517258,143.6572266,Western Australia,0.0,0.0,0.0,0.0,0.0,0.0,0.0,0.0,http://www.emknowledge.gov.au/resource/?id=197
201,Flood - Sydney and Wollongong,Flood,1998,1990,8/17/1998 0:00,8/19/1998 0:00,-34.42443466,150.8930969,New South Wales,1.0,0.0,0.0,0.0,40000000.0,0.0,0.0,10.0,http://www.emknowledge.gov.au/resource/?id=201
206,Bushfire - South-East Victoria,Bushfire,1926,1920,2/1/1926 0:00,3/10/1926 0:00,-37.75360107,145.6890869,Victoria,60.0,0.0,0.0,700.0,0.0,0.0,0.0,740.0,http://www.emknowledge.gov.au/resource/?id=206
210,Bushfire - Linton (near Ballarat),Bushfire,1998,1990,12/2/1998 0:00,12/2/1998 0:00,-37.68438339,143.5633545,Victoria,5.0,0.0,0.0,0.0,0.0,0.0,0.0,50.0,http://www.emknowledge.gov.au/resource/?id=210
212,Flood - Brisbane River,Flood,1974,1970,1/25/1974 0:00,1/29/1974 0:00,-27.4712677,153.0091705,Queensland,13.0,300.0,2500.0,0.0,68000000.0,56.0,0.0,967.0,http://www.emknowledge.gov.au/resource/?id=212
213,Hail - Sydney Apr 1999,Hail,1999,1990,4/14/1999 0:00,4/14/1999 0:00,-33.9096756,151.2230225,New South Wales,1.0,50.0,0.0,500.0,1700000000.0,0.0,0.0,210.0,http://www.emknowledge.gov.au/resource/?id=213
218,Cyclone Audrey,Cyclone,1969,1960,2/28/1969 0:00,3/9/1969 0:00,-12.05006504,134.2199707,Northern Territory,4.0,0.0,0.0,0.0,0.0,0.0,0.0,40.0,http://www.emknowledge.gov.au/resource/?id=218
219,Hail - Western Sydney,Hail,1986,1980,10/3/1986 0:00,10/3/1986 0:00,-33.81459808,151.0031281,New South Wales,0.0,10.0,0.0,120.0,104000000.0,0.0,0.0,44.0,http://www.emknowledge.gov.au/resource/?id=219
222,Cyclone Emily,Cyclone,1972,1970,3/27/1972 0:00,4/2/1972 0:00,-23.41284752,150.8175659,Queensland,8.0,0.0,0.0,0.0,0.0,0.0,0.0,80.0,http://www.emknowledge.gov.au/resource/?id=222
224,Bushfire - East Coast Queensland,Bushfire,1994,1990,9/27/1994 0:00,11/7/1994 0:00,-27.08205414,152.9538879,Queensland,0.0,9.0,3000.0,0.0,59100000.0,23.0,0.0,214.0,http://www.emknowledge.gov.au/resource/?id=224
233,Earthquake - Adelaide,Earthquake,1954,1950,3/1/1954 0:00,3/1/1954 0:00,-34.97600174,138.6254883,South Australia,0.0,3.0,0.0,0.0,0.0,0.0,0.0,6.0,http://www.emknowledge.gov.au/resource/?id=233
235,Bushfire - Black Sunday Mt Lofty Ranges,Bushfire,1955,1950,1/2/1955 0:00,1/2/1955 0:00,-35.00764465,138.7087402,South Australia,2.0,0.0,0.0,0.0,0.0,0.0,0.0,20.0,http://www.emknowledge.gov.au/resource/?id=235
237,Cyclone Bobby,Cyclone,1995,1990,2/24/1995 0:00,2/27/1995 0:00,-21.63766289,115.1149368,Western Australia,8.0,0.0,0.0,0.0,11000000.0,0.0,0.0,80.0,http://www.emknowledge.gov.au/resource/?id=237
239,Bushfire - Saltern Creek,Bushfire,1918,1910,9/16/1918 0:00,12/30/1918 0:00,-23.44151306,144.2484283,Queensland,5.0,0.0,0.0,0.0,0.0,0.0,0.0,50.0,http://www.emknowledge.gov.au/resource/?id=239
240,Hail - Sydney Jan 1947,Hail,1947,1940,1/1/1947 0:00,1/1/1947 0:00,-33.81110382,151.2130737,New South Wales,0.0,300.0,0.0,0.0,0.0,0.0,0.0,600.0,http://www.emknowledge.gov.au/resource/?id=240
245,Bushfire - Black Christmas,Bushfire,2001,2000,12/24/2001 0:00,1/11/2002 0:00,-35.05125809,150.6684265,New South Wales;Australian Capital Territory,0.0,0.0,11000.0,0.0,69000000.0,109.0,443.0,1654.0,http://www.emknowledge.gov.au/resource/?id=245
247,"Earthquake - Hunter Valley, Ellalong and Cessnock",Earthquake,1994,1990,8/6/1994 0:00,8/6/1994 0:00,-32.78034592,151.3469696,New South Wales,0.0,0.0,0.0,0.0,37200000.0,0.0,0.0,0.0,http://www.emknowledge.gov.au/resource/?id=247
248,Flood - Sydney Nov 1984,Flood,1984,1980,11/8/1984 0:00,11/8/1984 0:00,-33.85963821,151.2046814,New South Wales,0.0,0.0,0.0,0.0,80000000.0,0.0,0.0,0.0,http://www.emknowledge.gov.au/resource/?id=248
249,Environmental - Central Wheatbelt Western Australia,Environmental,1998,1990,9/19/1998 0:00,9/23/1998 0:00,-31.47698784,118.2832718,Western Australia,0.0,0.0,0.0,0.0,0.0,0.0,0.0,0.0,http://www.emknowledge.gov.au/resource/?id=249
251,Environmental - Heatwave Dec 1911,Environmental,1911,1910,12/1/1911 0:00,2/28/1912 0:00,-27.15840912,132.7209015,Northern Territory;Queensland;New South Wales;Australian Capital Territory;South Australia;Western Australia;Tasmania;Victoria,143.0,0.0,0.0,0.0,0.0,0.0,0.0,1430.0,http://www.emknowledge.gov.au/resource/?id=251
254,Flood - Woden Valley,Flood,1971,1970,1/26/1971 0:00,1/26/1971 0:00,-35.36168671,149.07164,Australian Capital Territory,7.0,15.0,0.0,0.0,0.0,0.0,0.0,100.0,http://www.emknowledge.gov.au/resource/?id=254
257,Cyclone Agnes,Cyclone,1956,1950,3/6/1956 0:00,3/7/1956 0:00,-19.25200272,146.8206024,Queensland,4.0,0.0,0.0,0.0,0.0,20.0,0.0,80.0,http://www.emknowledge.gov.au/resource/?id=257
262,Flood - Sydney Aug 1986,Flood,1986,1980,8/4/1986 0:00,8/6/1986 0:00,-34.42443466,150.8930969,New South Wales,6.0,0.0,0.0,0.0,35000000.0,0.0,0.0,60.0,http://www.emknowledge.gov.au/resource/?id=262
265,"Flood - Gnarr Creek, Ballarat",Flood,1991,1990,12/16/1991 0:00,12/18/1991 0:00,-37.56203079,143.8566589,Victoria,0.0,0.0,0.0,220.0,24000000.0,0.0,0.0,44.0,http://www.emknowledge.gov.au/resource/?id=265
269,"Flood - Grafton, Kempsey and North Coast New South Wales",Flood,2001,2000,3/5/2001 0:00,3/12/2001 0:00,-29.69111061,152.9332886,New South Wales,0.0,0.0,3000.0,250.0,25000000.0,0.0,0.0,200.0,http://www.emknowledge.gov.au/resource/?id=269
271,Cyclone Hazel,Cyclone,1979,1970,3/1/1979 0:00,3/1/1979 0:00,-24.88456726,113.6291885,Western Australia,15.0,5.0,0.0,0.0,15000000.0,0.0,0.0,160.0,http://www.emknowledge.gov.au/resource/?id=271
280,Hail - Brisbane and Region,Hail,1998,1990,12/16/1998 0:00,12/16/1998 0:00,-27.41870308,153.0553284,Queensland,0.0,0.0,0.0,0.0,76000000.0,0.0,0.0,0.0,http://www.emknowledge.gov.au/resource/?id=280
288,Environmental - World War II Drought,Environmental,1939,1930,1/1/1939 0:00,6/30/1945 0:00,-35.11990738,147.3596191,Northern Territory;Queensland;New South Wales;Australian Capital Territory;South Australia;Western Australia;Tasmania;Victoria,0.0,0.0,0.0,0.0,0.0,0.0,0.0,0.0,http://www.emknowledge.gov.au/resource/?id=288
295,Bushfire - Gippsland February 1932,Bushfire,1932,1930,2/4/1932 0:00,2/28/1932 0:00,-37.0245285,145.1369171,Victoria,9.0,0.0,0.0,0.0,0.0,0.0,0.0,90.0,http://www.emknowledge.gov.au/resource/?id=295
301,Flood - Eastern New South Wales,Flood,1950,1950,6/1/1950 0:00,6/30/1950 0:00,-30.89574432,153.0127716,New South Wales,5.0,0.0,0.0,0.0,0.0,0.0,0.0,50.0,http://www.emknowledge.gov.au/resource/?id=301
302,Severe Storm - Sydney and Blue Mountains,Severe Storm,1994,1990,11/20/1994 0:00,11/20/1994 0:00,-33.91601181,150.9922791,New South Wales,2.0,2.0,0.0,0.0,29000000.0,0.0,0.0,24.0,http://www.emknowledge.gov.au/resource/?id=302
303,Cyclone Ada,Cyclone,1970,1970,1/17/1970 0:00,1/19/1970 0:00,-20.26155281,148.9804535,Queensland,14.0,0.0,0.0,0.0,12000000.0,0.0,0.0,140.0,http://www.emknowledge.gov.au/resource/?id=303
304,"Severe Storm - Perth, Mandurah and South-West Coast",Severe Storm,1994,1990,5/23/1994 0:00,5/24/1994 0:00,-32.53684616,115.7422714,Western Australia,0.0,0.0,0.0,200.0,37000000.0,0.0,0.0,40.0,http://www.emknowledge.gov.au/resource/?id=304
307,Flood - Alice Springs and Central Northern Territory,Flood,1988,1980,3/31/1988 0:00,4/2/1988 0:00,-23.49347687,132.8082275,Northern Territory,3.0,0.0,300.0,0.0,10000000.0,0.0,0.0,45.0,http://www.emknowledge.gov.au/resource/?id=307
308,"Environmental - Heatwave, South-East Queensland",Environmental,2000,2000,1/20/2000 0:00,1/24/2000 0:00,-27.4644146,153.0340576,Queensland,22.0,350.0,0.0,0.0,0.0,0.0,0.0,920.0,http://www.emknowledge.gov.au/resource/?id=308
309,Bushfire - Western Districts and Streatham,Bushfire,1977,1970,2/12/1977 0:00,2/12/1977 0:00,-37.67930603,143.0588379,Victoria,4.0,0.0,0.0,350.0,9000000.0,116.0,340.0,1022.0,http://www.emknowledge.gov.au/resource/?id=309
313,Severe Storm - Sydney and Region 1998,Severe Storm,1998,1990,2/4/1998 0:00,2/4/1998 0:00,-34.8499794,150.7465363,New South Wales,0.0,1.0,0.0,0.0,12000000.0,0.0,0.0,2.0,http://www.emknowledge.gov.au/resource/?id=313
314,Flood - Widespread Queensland,Flood,1930,1930,1/20/1930 0:00,1/30/1930 0:00,-21.14026833,149.1857605,Queensland,6.0,0.0,0.0,0.0,0.0,0.0,0.0,60.0,http://www.emknowledge.gov.au/resource/?id=314
315,Landslide - Thredbo,Landslide,1997,1990,7/30/1997 0:00,7/30/1997 0:00,-36.50453186,148.3059845,New South Wales,18.0,1.0,0.0,0.0,0.0,0.0,2.0,186.0,http://www.emknowledge.gov.au/resource/?id=315
317,"Flood - Toowoomba, Miles, Cairns, and Townsville",Flood,1927,1920,2/10/1927 0:00,2/17/1927 0:00,-16.92245293,145.7740326,Queensland,47.0,0.0,0.0,0.0,0.0,16.0,0.0,502.0,http://www.emknowledge.gov.au/resource/?id=317
319,"Severe Storm - Sydney, Wollongong and South Coast",Severe Storm,1999,1990,10/24/1999 0:00,10/24/1999 0:00,-31.63124084,152.7038727,New South Wales,0.0,0.0,0.0,0.0,45000000.0,0.0,0.0,0.0,http://www.emknowledge.gov.au/resource/?id=319
320,Bushfire - Longwood District,Bushfire,1965,1960,1/17/1965 0:00,1/17/1965 0:00,-36.80660629,145.4255676,Victoria,7.0,0.0,0.0,0.0,0.0,6.0,0.0,82.0,http://www.emknowledge.gov.au/resource/?id=320
321,Environmental - National Drought,Environmental,1958,1950,1/1/1958 0:00,9/1/1968 0:00,-23.70033646,133.880722,Northern Territory;Queensland;New South Wales;Australian Capital Territory;South Australia;Western Australia;Tasmania;Victoria,0.0,0.0,0.0,0.0,0.0,0.0,0.0,0.0,http://www.emknowledge.gov.au/resource/?id=321
322,Flood - South-East Queensland Feb 1928,Flood,1928,1920,2/14/1928 0:00,2/22/1928 0:00,-27.47046852,153.0235443,Queensland,5.0,0.0,0.0,0.0,0.0,0.0,0.0,50.0,http://www.emknowledge.gov.au/resource/?id=322
326,Flood - Tasmania,Flood,1929,1920,4/3/1929 0:00,4/6/1929 0:00,-41.05178452,145.9071045,Tasmania,22.0,0.0,0.0,0.0,0.0,0.0,100.0,420.0,http://www.emknowledge.gov.au/resource/?id=326
328,Flood - Sydney Mar 1975,Flood,1975,1970,3/9/1975 0:00,3/9/1975 0:00,-33.85963821,151.2046814,New South Wales,0.0,0.0,0.0,0.0,15000000.0,0.0,0.0,0.0,http://www.emknowledge.gov.au/resource/?id=328
330,Bushfire - Central Western New South Wales and Southern Queensland,Bushfire,1926,1920,10/1/1926 0:00,12/17/1926 0:00,-33.15795898,148.0520935,Queensland;New South Wales,8.0,0.0,0.0,0.0,0.0,0.0,0.0,80.0,http://www.emknowledge.gov.au/resource/?id=330
333,Severe Storm - New England and Hunter Valley,Severe Storm,1996,1990,11/17/1996 0:00,11/17/1996 0:00,-31.09020615,150.9302979,New South Wales,1.0,0.0,0.0,0.0,10000000.0,0.0,0.0,10.0,http://www.emknowledge.gov.au/resource/?id=333
334,"Flood - Queensland, Northern Territory and Western Australia",Flood,1973,1970,3/2/1973 0:00,3/30/1973 0:00,-16.92290306,145.773941,Queensland,0.0,0.0,0.0,0.0,30000000.0,0.0,0.0,0.0,http://www.emknowledge.gov.au/resource/?id=334
336,Bushfire - Sydney and Region,Bushfire,1979,1970,12/1/1979 0:00,2/1/1980 0:00,-33.6717186,151.1949921,New South Wales,5.0,0.0,0.0,0.0,0.0,28.0,0.0,106.0,http://www.emknowledge.gov.au/resource/?id=336
337,Flood - Katherine Floods,Flood,1998,1990,1/25/1998 0:00,2/2/1998 0:00,-14.46360493,132.2644043,Northern Territory,3.0,30.0,2000.0,3600.0,70000000.0,0.0,0.0,910.0,http://www.emknowledge.gov.au/resource/?id=337
338,Severe Storm - Hunter Valley and Mid-North Coast,Severe Storm,1995,1990,11/30/1995 0:00,11/30/1995 0:00,-32.76039124,151.6027374,New South Wales,0.0,0.0,0.0,0.0,10000000.0,0.0,0.0,0.0,http://www.emknowledge.gov.au/resource/?id=338
340,Severe Storm - Sydney Jan 1991,Severe Storm,1991,1990,1/21/1991 0:00,1/21/1991 0:00,-33.8731575,151.2069397,New South Wales,1.0,100.0,0.0,0.0,138400000.0,20.0,0.0,250.0,http://www.emknowledge.gov.au/resource/?id=340
343,Cyclone - Rockhampton,Cyclone,1949,1940,3/2/1949 0:00,3/3/1949 0:00,-23.66465187,150.8230591,Queensland,4.0,0.0,0.0,300.0,0.0,1500.0,0.0,3100.0,http://www.emknowledge.gov.au/resource/?id=343
345,Cyclone Vance,Cyclone,1999,1990,3/18/1999 0:00,3/24/1999 0:00,-12.46484184,130.837616,Western Australia,0.0,0.0,0.0,0.0,35000000.0,112.0,0.0,224.0,http://www.emknowledge.gov.au/resource/?id=345
346,Flood - Queensland South Coast,Flood,1928,1920,4/18/1928 0:00,4/24/1928 0:00,-23.71833229,150.371933,New South Wales;Queensland,9.0,0.0,0.0,0.0,0.0,0.0,0.0,90.0,http://www.emknowledge.gov.au/resource/?id=346
347,Bushfire - Sydney and Southern Regions,Bushfire,1983,1980,1/1/1983 0:00,1/31/1983 0:00,-34.05809784,151.0814514,New South Wales,3.0,0.0,0.0,0.0,0.0,0.0,0.0,30.0,http://www.emknowledge.gov.au/resource/?id=347
350,Bushfire - Black Friday,Bushfire,1939,1930,1/13/1939 0:00,1/20/1939 0:00,-37.56360245,145.4637756,Australian Capital Territory;New South Wales;Victoria;South Australia;Tasmania,71.0,0.0,0.0,0.0,0.0,1000.0,0.0,2710.0,http://www.emknowledge.gov.au/resource/?id=350
351,Bushfire - Gippsland February 1965,Bushfire,1965,1960,2/15/1965 0:00,3/13/1965 0:00,-37.0245285,145.1369171,Victoria,3.0,0.0,0.0,0.0,0.0,0.0,60.0,150.0,http://www.emknowledge.gov.au/resource/?id=351
352,Cyclone - Mackay 1955,Cyclone,1955,1950,3/7/1955 0:00,3/7/1955 0:00,-21.13790703,149.1849823,Queensland,8.0,0.0,0.0,0.0,0.0,0.0,0.0,80.0,http://www.emknowledge.gov.au/resource/?id=352
354,Severe Storm - Casino and Region,Severe Storm,2001,2000,1/17/2001 0:00,1/17/2001 0:00,-28.86076164,153.0458984,New South Wales,0.0,0.0,0.0,0.0,35000000.0,0.0,0.0,0.0,http://www.emknowledge.gov.au/resource/?id=354
355,Earthquake - Meckering and Region,Earthquake,1968,1960,10/14/1968 0:00,10/14/1968 0:00,-31.62678337,117.0074844,Western Australia,0.0,20.0,0.0,0.0,1500000.0,0.0,0.0,40.0,http://www.emknowledge.gov.au/resource/?id=355
358,Severe Storm - South Eastern Australia Nov 1994,Severe Storm,1994,1990,11/6/1994 0:00,11/8/1994 0:00,-37.8119545,144.9635773,Australian Capital Territory;New South Wales;Victoria,1.0,50.0,0.0,100.0,0.0,0.0,0.0,130.0,http://www.emknowledge.gov.au/resource/?id=358
360,Cyclone - Balla Balla,Cyclone,1912,1910,3/20/1912 0:00,3/22/1912 0:00,-20.6311779,117.7265778,Western Australia,173.0,0.0,0.0,0.0,0.0,0.0,0.0,1730.0,http://www.emknowledge.gov.au/resource/?id=360
361,Flood - Dalby,Flood,1981,1980,2/1/1981 0:00,2/1/1981 0:00,-27.17769051,151.2635345,Queensland,1.0,5.0,0.0,0.0,20000000.0,0.0,0.0,20.0,http://www.emknowledge.gov.au/resource/?id=361
362,Cyclone - Innisfail,Cyclone,1918,1910,3/10/1918 0:00,3/10/1918 0:00,-17.52427864,146.0322876,Queensland,37.0,0.0,0.0,0.0,0.0,0.0,0.0,370.0,http://www.emknowledge.gov.au/resource/?id=362
365,Flood - Central Coast,Flood,1958,1950,2/16/1958 0:00,2/24/1958 0:00,-33.39017487,151.4781189,Queensland,3.0,0.0,0.0,0.0,0.0,20.0,0.0,70.0,http://www.emknowledge.gov.au/resource/?id=365
374,"Bushfire - North-Eastern Victoria, Alpine Region",Bushfire,2003,2000,1/8/2003 0:00,3/19/2003 0:00,-36.72137451,146.7861481,Victoria,0.0,0.0,0.0,0.0,12000000.0,41.0,213.0,508.0,http://www.emknowledge.gov.au/resource/?id=374
376,Severe Storm - South Eastern Australia,Severe Storm,2003,2000,8/24/2003 0:00,8/24/2003 0:00,-37.8119545,144.9635773,Australian Capital Territory;New South Wales;Victoria;Tasmania,1.0,4.0,0.0,0.0,25000000.0,0.0,0.0,18.0,http://www.emknowledge.gov.au/resource/?id=376
377,Hail - South-East Queensland,Hail,2004,2000,1/24/2004 0:00,1/31/2004 0:00,-28.13527489,153.486557,Queensland,1.0,3.0,0.0,0.0,28500000.0,0.0,0.0,16.0,http://www.emknowledge.gov.au/resource/?id=377
378,Bushfire - Eyre Peninsula,Bushfire,2005,2000,1/10/2005 0:00,1/12/2005 0:00,-34.71579361,135.8571014,South Australia,9.0,110.0,0.0,0.0,27700000.0,79.0,0.0,468.0,http://www.emknowledge.gov.au/resource/?id=378
379,"Severe Storm - New South Wales, Victoria, Australian Capital Territory, Tasmania and South Australia",Severe Storm,2005,2000,2/1/2005 0:00,2/3/2005 0:00,-33.71191788,150.9577332,Australian Capital Territory;New South Wales;Victoria;South Australia,0.0,0.0,0.0,0.0,216700000.0,0.0,0.0,0.0,http://www.emknowledge.gov.au/resource/?id=379
384,Severe Storm - Sydney Feb 2002,Severe Storm,2002,2000,2/16/2002 0:00,2/16/2002 0:00,-33.71273804,151.2968445,New South Wales,0.0,0.0,0.0,0.0,10000000.0,0.0,0.0,0.0,http://www.emknowledge.gov.au/resource/?id=384
386,Cyclone Tracy,Cyclone,1974,1970,12/25/1974 0:00,12/25/1974 0:00,-12.46484184,130.837616,Northern Territory,71.0,650.0,35362.0,41000.0,200000000.0,5000.0,0.0,21978.1,http://www.emknowledge.gov.au/resource/?id=386
391,"Severe Storm - South-East Queensland, Northern New South Wales, Northern Western Australia. Northern Territory",Severe Storm,2004,2000,3/3/2004 0:00,3/31/2004 0:00,-28.80579758,153.2768707,Northern Territory;Queensland;New South Wales;Western Australia,3.0,0.0,0.0,0.0,0.0,0.0,0.0,30.0,http://www.emknowledge.gov.au/resource/?id=391
398,Severe Storm - Bunbury and South Perth,Severe Storm,2005,2000,5/16/2005 0:00,5/16/2005 0:00,-32.0274353,115.7822495,Western Australia,0.0,0.0,0.0,0.0,53200000.0,0.0,0.0,0.0,http://www.emknowledge.gov.au/resource/?id=398
399,Hail - Brisbane,Hail,2005,2000,5/19/2005 0:00,5/19/2005 0:00,-27.47093391,153.0234985,Queensland,0.0,0.0,0.0,0.0,17600000.0,0.0,0.0,0.0,http://www.emknowledge.gov.au/resource/?id=399
402,Hail - Gold Coast,Hail,2005,2000,10/12/2005 0:00,10/12/2005 0:00,-27.92241287,153.3378754,Queensland,0.0,0.0,0.0,0.0,61000000.0,500.0,0.0,1000.0,http://www.emknowledge.gov.au/resource/?id=402
404,Hail - Lake Grace,Hail,2005,2000,10/16/2005 0:00,10/16/2005 0:00,-33.10052109,118.4666214,Western Australia,0.0,0.0,0.0,0.0,10000000.0,0.0,0.0,0.0,http://www.emknowledge.gov.au/resource/?id=404
405,Bushfire - Blue Mountains and Sydney Region,Bushfire,1957,1950,11/30/1957 0:00,12/4/1957 0:00,-33.71252823,150.3315277,New South Wales,4.0,0.0,0.0,0.0,0.0,158.0,0.0,356.0,http://www.emknowledge.gov.au/resource/?id=405
409,Cyclone - Cooktown,Cyclone,1907,1900,1/19/1907 0:00,1/19/1907 0:00,-15.46823978,145.254364,Queensland,9.0,0.0,0.0,0.0,0.0,0.0,0.0,90.0,http://www.emknowledge.gov.au/resource/?id=409
411,"Environmental - Heatwave, Townsville",Environmental,1994,1990,1/6/1994 0:00,1/10/1994 0:00,-19.25743103,146.8178558,Queensland,3.0,0.0,0.0,0.0,0.0,0.0,0.0,30.0,http://www.emknowledge.gov.au/resource/?id=411
414,Flood - Clermont and Peak Downs Dec 1916,Flood,1916,1910,12/27/1916 0:00,12/27/1916 0:00,-22.81669426,147.6480103,Queensland,61.0,0.0,0.0,0.0,0.0,0.0,0.0,610.0,http://www.emknowledge.gov.au/resource/?id=414
415,Severe Storm - Sydney Jan 1977,Severe Storm,1977,1970,1/21/1977 0:00,1/21/1977 0:00,-33.80190277,150.9441681,New South Wales,1.0,0.0,0.0,0.0,15000000.0,0.0,0.0,10.0,http://www.emknowledge.gov.au/resource/?id=415
416,Flood - Hunter Valley,Flood,1955,1950,2/22/1955 0:00,2/28/1955 0:00,-31.82798195,147.7187347,New South Wales,24.0,0.0,40000.0,15000.0,0.0,58.0,0.0,5356.0,http://www.emknowledge.gov.au/resource/?id=416
424,Severe Storm - Eastern New South Wales,Severe Storm,2001,2000,11/18/2001 0:00,11/21/2001 0:00,-32.72064972,152.1438293,New South Wales,3.0,0.0,0.0,0.0,30000000.0,0.0,0.0,30.0,http://www.emknowledge.gov.au/resource/?id=424
427,Bushfire - North-Western Regions,Bushfire,1984,1980,9/1/1984 0:00,2/1/1985 0:00,-31.49797058,145.8381958,New South Wales,4.0,0.0,0.0,0.0,25000000.0,0.0,0.0,40.0,http://www.emknowledge.gov.au/resource/?id=427
428,Severe Storm - Sydney Apr 1998,Severe Storm,1998,1990,4/9/1998 0:00,4/10/1998 0:00,-33.91579819,151.0357513,New South Wales,1.0,0.0,0.0,0.0,10000000.0,0.0,0.0,10.0,http://www.emknowledge.gov.au/resource/?id=428
429,Severe Storm - Orbost,Severe Storm,1991,1990,1/24/1991 0:00,1/24/1991 0:00,-37.70148087,148.4568787,Victoria,0.0,0.0,0.0,0.0,12000000.0,0.0,0.0,0.0,http://www.emknowledge.gov.au/resource/?id=429
433,Cyclone - Coastal Queensland and New South Wales,Cyclone,1950,1950,1/16/1950 0:00,1/19/1950 0:00,-17.70944595,140.020752,New South Wales;Queensland,7.0,0.0,100.0,0.0,0.0,0.0,0.0,75.0,http://www.emknowledge.gov.au/resource/?id=433
434,Cyclone Nancy,Cyclone,1990,1990,2/3/1990 0:00,2/7/1990 0:00,-28.63967705,153.6139374,Queensland,6.0,0.0,0.0,0.0,33000000.0,0.0,0.0,60.0,http://www.emknowledge.gov.au/resource/?id=434
439,Environmental - South-West Western Australia Drought,Environmental,2000,2000,4/1/2000 0:00,8/22/2001 0:00,-21.93014717,114.1222,Western Australia,0.0,0.0,0.0,0.0,0.0,0.0,0.0,0.0,http://www.emknowledge.gov.au/resource/?id=439
442,Bushfire - Victoria,Bushfire,2005,2000,12/31/2005 0:00,1/31/2006 0:00,-37.0141716,142.7177734,Victoria,4.0,6.0,0.0,0.0,22400000.0,57.0,359.0,884.0,http://www.emknowledge.gov.au/resource/?id=442
445,Cyclone - The Great Gold Coast Cyclone,Cyclone,1954,1950,2/20/1954 0:00,2/24/1954 0:00,-28.16656685,153.538147,Queensland;New South Wales,26.0,0.0,0.0,0.0,0.0,0.0,0.0,260.0,http://www.emknowledge.gov.au/resource/?id=445
446,Severe Storm - Warwick,Severe Storm,1998,1990,10/13/1998 0:00,10/13/1998 0:00,-33.91352081,150.9316711,Queensland,0.0,0.0,0.0,0.0,23000000.0,0.0,0.0,0.0,http://www.emknowledge.gov.au/resource/?id=446
448,Cyclone Larry,Cyclone,2006,2000,3/20/2006 0:00,3/20/2006 0:00,-17.51965332,146.0728455,Queensland,0.0,30.0,0.0,0.0,540000000.0,0.0,0.0,60.0,http://www.emknowledge.gov.au/resource/?id=448
451,Tornado - Kin Kin,Tornado,1971,1970,8/14/1971 0:00,8/14/1971 0:00,-27.47023964,153.0235443,Queensland,3.0,0.0,0.0,0.0,0.0,0.0,0.0,30.0,http://www.emknowledge.gov.au/resource/?id=451
452,Severe Storm - Sydney Feb 1992,Severe Storm,1992,1990,2/12/1992 0:00,2/13/1992 0:00,-33.73226166,151.1278381,New South Wales,0.0,1.0,0.0,0.0,118000000.0,0.0,0.0,2.0,http://www.emknowledge.gov.au/resource/?id=452
458,Cyclone Alby,Cyclone,1978,1970,3/27/1978 0:00,4/4/1978 0:00,-20.31162643,118.5752563,Western Australia,5.0,0.0,0.0,20.0,13000000.0,0.0,0.0,54.0,http://www.emknowledge.gov.au/resource/?id=458
460,Hail - Port Broughton,Hail,1979,1970,11/14/1979 0:00,11/14/1979 0:00,-33.60050201,137.9333191,South Australia,0.0,71.0,0.0,150.0,10000000.0,0.0,0.0,172.0,http://www.emknowledge.gov.au/resource/?id=460
465,Earthquake - Tennant Creek,Earthquake,1988,1980,1/22/1988 0:00,1/22/1988 0:00,-19.64363861,134.1915588,Northern Territory,0.0,0.0,0.0,0.0,0.0,0.0,0.0,0.0,http://www.emknowledge.gov.au/resource/?id=465
466,Cyclone Broome,Cyclone,1910,1910,11/19/1910 0:00,11/19/1910 0:00,-17.95405579,122.2489929,Western Australia,40.0,0.0,0.0,0.0,0.0,20.0,0.0,440.0,http://www.emknowledge.gov.au/resource/?id=466
469,Bushfire - Cootamundra and Deniliquin Regions,Bushfire,1987,1980,1/17/1987 0:00,1/20/1987 0:00,-34.63893127,148.0243835,New South Wales,3.0,20.0,0.0,0.0,0.0,0.0,0.0,70.0,http://www.emknowledge.gov.au/resource/?id=469
471,Hail - Brighton,Hail,1980,1980,12/16/1980 0:00,12/16/1980 0:00,-27.30474854,153.0626831,Queensland,0.0,0.0,0.0,0.0,15000000.0,0.0,0.0,0.0,http://www.emknowledge.gov.au/resource/?id=471
472,Hail - Armidale and Tamworth,Hail,1996,1990,9/29/1996 0:00,9/29/1996 0:00,-30.51434326,151.6669617,New South Wales,0.0,10.0,0.0,0.0,104000000.0,0.0,0.0,20.0,http://www.emknowledge.gov.au/resource/?id=472
474,Cyclone Leonta,Cyclone,1903,1900,3/9/1903 0:00,3/9/1903 0:00,-19.25200272,146.8206024,Queensland,10.0,0.0,0.0,0.0,0.0,0.0,2.0,104.0,http://www.emknowledge.gov.au/resource/?id=474
476,"Bushfire - Sydney, Hunter, Pilliga",Bushfire,1997,1990,11/20/1997 0:00,12/20/1997 0:00,-30.34799194,148.890152,New South Wales,4.0,0.0,0.0,0.0,0.0,10.0,0.0,60.0,http://www.emknowledge.gov.au/resource/?id=476
478,Landslide - Adelaide Hills,Landslide,1928,1920,1/31/1928 0:00,1/31/1928 0:00,-34.99681473,138.6215363,South Australia,6.0,3.0,0.0,0.0,0.0,0.0,0.0,66.0,http://www.emknowledge.gov.au/resource/?id=478
481,Flood - North Queensland Feb 2009,Flood,2009,2000,1/31/2009 0:00,2/7/2009 0:00,-18.6511116,146.1546173,Queensland,1.0,0.0,0.0,0.0,19000000.0,0.0,0.0,10.0,http://www.emknowledge.gov.au/resource/?id=481
482,"Bushfire - Black Saturday, Victoria 2009",Bushfire,2009,2000,2/7/2009 0:00,2/8/2009 0:00,-37.56237411,145.3191986,Victoria,173.0,414.0,0.0,0.0,1070000000.0,2029.0,0.0,6616.0,http://www.emknowledge.gov.au/resource/?id=482
483,Environmental - South-Eastern Australia Heatwave 2009,Environmental,2009,2000,1/27/2009 0:00,1/31/2009 0:00,-37.81310654,144.9633942,South Australia;Victoria,374.0,0.0,0.0,0.0,0.0,0.0,0.0,3740.0,http://www.emknowledge.gov.au/resource/?id=483
484,Flood - Northern New South Wales May 2009,Flood,2009,2000,5/20/2009 0:00,5/23/2009 0:00,-28.64416122,153.612381,New South Wales,1.0,0.0,0.0,0.0,48000000.0,0.0,0.0,10.0,http://www.emknowledge.gov.au/resource/?id=484
490,Flood - Mid and North Coast,Flood,2009,2000,3/31/2009 0:00,4/2/2009 0:00,-30.29631233,153.1156769,New South Wales,0.0,0.0,0.0,0.0,37000000.0,0.0,0.0,0.0,http://www.emknowledge.gov.au/resource/?id=490
491,Severe Storm - South-East Queensland Nov 2008,Severe Storm,2008,2000,11/16/2008 0:00,11/22/2008 0:00,-27.6130867,152.758194,Queensland,1.0,0.0,0.0,0.0,309000000.0,0.0,0.0,10.0,http://www.emknowledge.gov.au/resource/?id=491
493,Severe Storm - Southern States Windstorms,Severe Storm,2008,2000,4/2/2008 0:00,4/2/2008 0:00,-38.22995377,143.8007355,Tasmania;South Australia;Victoria,2.0,0.0,0.0,0.0,65000000.0,0.0,0.0,20.0,http://www.emknowledge.gov.au/resource/?id=493
494,Flood - Mackay,Flood,2008,2000,2/14/2008 0:00,2/17/2008 0:00,-21.14058876,149.1856689,Queensland,0.0,0.0,0.0,0.0,410000000.0,0.0,0.0,0.0,http://www.emknowledge.gov.au/resource/?id=494
495,Flood - South-East Queensland Feb 2008,Flood,2008,2000,2/10/2008 0:00,2/18/2008 0:00,-27.99584007,152.6824951,Queensland,0.0,0.0,0.0,0.0,410000000.0,0.0,0.0,0.0,http://www.emknowledge.gov.au/resource/?id=495
496,Flood - North Coast New South Wales,Flood,2008,2000,1/4/2008 0:00,1/11/2008 0:00,-28.62035561,153.0040588,New South Wales,0.0,0.0,0.0,0.0,15000000.0,0.0,0.0,0.0,http://www.emknowledge.gov.au/resource/?id=496
497,Flood - Queensland Jan 2008,Flood,2008,2000,1/1/2008 0:00,1/31/2008 0:00,-27.47092438,153.0235443,Queensland,0.0,0.0,0.0,0.0,70000000.0,0.0,0.0,0.0,http://www.emknowledge.gov.au/resource/?id=497
498,Bushfire - Boorabbin National Park,Bushfire,2007,2000,12/28/2007 0:00,1/8/2008 0:00,-31.23159218,120.1804733,Western Australia,3.0,0.0,0.0,0.0,0.0,0.0,0.0,30.0,http://www.emknowledge.gov.au/resource/?id=498
499,Flood - South-East Queensland Dec 2007,Flood,2007,2000,12/27/2007 0:00,1/7/2008 0:00,-28.80575943,153.2768707,Queensland,0.0,0.0,0.0,0.0,15000000.0,0.0,0.0,0.0,http://www.emknowledge.gov.au/resource/?id=499
500,Hail - Sydney Dec 2007,Hail,2007,2000,12/9/2007 0:00,12/9/2007 0:00,-33.91594315,151.0356598,New South Wales,0.0,30.0,0.0,0.0,415000000.0,0.0,0.0,60.0,http://www.emknowledge.gov.au/resource/?id=500
501,Flood - Queensland Nov 2010,Flood,2010,2010,11/30/2010 0:00,1/17/2011 0:00,-27.56394386,151.9540558,Queensland,33.0,0.0,5900.0,0.0,2380000000.0,0.0,0.0,625.0,http://www.emknowledge.gov.au/resource/?id=501
502,"Bushfire - Perth Hills, Western Australia 2011",Bushfire,2011,2010,2/5/2011 0:00,2/7/2011 0:00,-32.10860443,116.0691833,Western Australia,0.0,12.0,0.0,0.0,35000000.0,72.0,0.0,168.0,http://www.emknowledge.gov.au/resource/?id=502
503,"Cyclone Yasi, Queensland, 2011",Cyclone,2011,2010,2/3/2011 0:00,2/3/2011 0:00,-17.85067558,146.1099243,Queensland,1.0,0.0,0.0,0.0,1412000000.0,0.0,0.0,10.0,http://www.emknowledge.gov.au/resource/?id=503
504,Flood - Charleville,Flood,1990,1990,4/18/1990 0:00,4/21/1990 0:00,-26.39740562,146.2445068,Queensland,6.0,60.0,2300.0,0.0,30000000.0,0.0,0.0,295.0,http://www.emknowledge.gov.au/resource/?id=504
505,"Severe Storm - Melbourne, February 2011",Severe Storm,2011,2010,2/4/2011 0:00,2/6/2011 0:00,-37.81795502,144.9536133,Victoria,0.0,1.0,6000.0,0.0,418670000.0,0.0,0.0,302.0,http://www.emknowledge.gov.au/resource/?id=505
506,"Severe Storm - Melbourne, 2010",Severe Storm,2010,2010,3/6/2010 0:00,3/7/2010 0:00,-37.81795502,144.9536133,Victoria,0.0,0.0,0.0,0.0,1044000000.0,0.0,0.0,0.0,http://www.emknowledge.gov.au/resource/?id=506
507,Flood - Victoria Jan 2011,Flood,2011,2010,1/12/2011 0:00,1/18/2011 0:00,-36.05048752,145.2052765,Victoria,1.0,0.0,0.0,0.0,126495000.0,0.0,0.0,10.0,http://www.emknowledge.gov.au/resource/?id=507
509,"Severe Storm - Perth, 2010",Severe Storm,2010,2010,3/22/2010 0:00,3/22/2010 0:00,-31.90671539,115.8136139,Western Australia,0.0,0.0,100.0,0.0,1053000000.0,0.0,0.0,5.0,http://www.emknowledge.gov.au/resource/?id=509
510,Flood - Queensland Feb 2010,Flood,2010,2010,2/28/2010 0:00,3/5/2010 0:00,-27.47092438,153.0235443,Queensland,0.0,0.0,0.0,0.0,46700000.0,0.0,0.0,0.0,http://www.emknowledge.gov.au/resource/?id=510
511,Flood - Townsville,Flood,1998,1990,1/10/1998 0:00,1/12/1998 0:00,-19.25686264,146.8180695,Queensland,1.0,0.0,0.0,0.0,71000000.0,14.0,0.0,38.0,http://www.emknowledge.gov.au/resource/?id=511
512,Environmental - Eastern and Northern Australia Severe Drought,Environmental,1991,1990,1/1/1991 0:00,10/1/1996 0:00,-27.56520081,151.9551697,Northern Territory;Queensland;New South Wales;Australian Capital Territory;South Australia;Western Australia;Tasmania;Victoria,0.0,0.0,0.0,0.0,0.0,0.0,0.0,0.0,http://www.emknowledge.gov.au/resource/?id=512
514,Flood - North-East New South Wales,Flood,2005,2000,6/29/2005 0:00,6/30/2005 0:00,-28.80650711,153.276947,New South Wales,1.0,0.0,3000.0,0.0,25000000.0,0.0,0.0,160.0,http://www.emknowledge.gov.au/resource/?id=514
515,Landslide - Somersby,Landslide,2007,2000,6/8/2007 0:00,6/8/2007 0:00,-33.42005157,151.2840576,New South Wales,5.0,0.0,0.0,0.0,0.0,0.0,0.0,50.0,http://www.emknowledge.gov.au/resource/?id=515
516,Bushfire - Sydney,Bushfire,2002,2000,10/9/2002 0:00,10/9/2002 0:00,-34.06602859,151.0125427,New South Wales,0.0,0.0,0.0,0.0,25000000.0,10.0,0.0,20.0,http://www.emknowledge.gov.au/resource/?id=516
518,Bushfire - Sydney and Wollongong,Bushfire,1980,1980,11/3/1980 0:00,11/3/1980 0:00,-34.13113022,150.9933472,New South Wales,5.0,0.0,0.0,0.0,0.0,0.0,0.0,50.0,http://www.emknowledge.gov.au/resource/?id=518
519,Flood - South-East Queensland Jun 2005,Flood,2005,2000,6/29/2005 0:00,6/30/2005 0:00,-19.25706673,146.8179474,Queensland,2.0,0.0,0.0,0.0,53900000.0,0.0,0.0,20.0,http://www.emknowledge.gov.au/resource/?id=519
520,Severe Storm - Dubbo,Severe Storm,2001,2000,1/6/2001 0:00,1/6/2001 0:00,-32.24010086,148.6098328,New South Wales,0.0,0.0,0.0,0.0,15000000.0,0.0,0.0,0.0,http://www.emknowledge.gov.au/resource/?id=520
522,"Severe Storm - Grafton, Kingscliff and Lismore",Severe Storm,2002,2000,1/16/2002 0:00,1/16/2002 0:00,-29.69006538,152.9331207,New South Wales,0.0,0.0,0.0,0.0,10000000.0,0.0,0.0,0.0,http://www.emknowledge.gov.au/resource/?id=522
542,Bushfire - Narollah Station,Bushfire,1954,1950,11/14/1954 0:00,11/14/1954 0:00,-20.06302643,146.259613,Queensland,3.0,0.0,0.0,0.0,0.0,0.0,0.0,30.0,http://www.emknowledge.gov.au/resource/?id=542
544,Cyclone Tessi,Cyclone,2000,2000,4/2/2000 0:00,4/4/2000 0:00,-18.86470795,146.2994385,Queensland,0.0,0.0,0.0,0.0,15000000.0,0.0,0.0,0.0,http://www.emknowledge.gov.au/resource/?id=544
545,Cyclone Steve,Cyclone,2000,2000,2/27/2000 0:00,3/9/2000 0:00,-16.28831482,149.9652405,Queensland,1.0,0.0,0.0,0.0,11000000.0,0.0,0.0,10.0,http://www.emknowledge.gov.au/resource/?id=545
546,Flood - Lismore,Flood,1988,1980,4/7/1988 0:00,4/12/1988 0:00,-28.80591011,153.2769165,New South Wales,0.0,0.0,0.0,0.0,25000000.0,0.0,0.0,0.0,http://www.emknowledge.gov.au/resource/?id=546
547,Severe Storm - Northern New South Wales,Severe Storm,2005,2000,6/30/2005 0:00,6/30/2005 0:00,-28.1733017,153.542984,New South Wales,1.0,0.0,0.0,0.0,25000000.0,0.0,0.0,10.0,http://www.emknowledge.gov.au/resource/?id=547
548,Severe Storm - Coffs Harbour,Severe Storm,1996,1990,11/23/1996 0:00,11/23/1996 0:00,-30.29405403,153.1161194,New South Wales,1.0,0.0,0.0,0.0,20000000.0,0.0,0.0,10.0,http://www.emknowledge.gov.au/resource/?id=548
549,Flood - North-Eastern Victoria,Flood,1993,1990,10/3/1993 0:00,10/4/1993 0:00,-36.5514946,145.9817047,Victoria,0.0,0.0,0.0,0.0,12000000.0,0.0,0.0,0.0,http://www.emknowledge.gov.au/resource/?id=549
552,Cyclone Aivu,Cyclone,1989,1980,4/4/1989 0:00,4/20/1989 0:00,-19.64258766,147.590332,New South Wales;Queensland,3.0,0.0,0.0,0.0,26000000.0,0.0,0.0,30.0,http://www.emknowledge.gov.au/resource/?id=552
569,"Severe Storm - Melbourne, September 2011",Severe Storm,2011,2010,9/28/2011 0:00,9/29/2011 0:00,-37.81229401,144.9632263,Victoria,0.0,0.0,0.0,0.0,0.0,0.0,0.0,0.0,http://www.emknowledge.gov.au/resource/?id=569
587,"Bushfire - Augusta and Margaret River, Western Australia 2011",Bushfire,2011,2010,11/23/2011 0:00,12/6/2011 0:00,-34.31492233,115.159256,Western Australia,0.0,0.0,0.0,0.0,53000000.0,32.0,13.0,90.0,http://www.emknowledge.gov.au/resource/?id=587
588,"Flood - Northern New South Wales, Moree",Flood,2011,2010,11/27/2011 0:00,12/4/2011 0:00,-29.46429825,149.8447876,New South Wales,1.0,0.0,0.0,0.0,0.0,0.0,0.0,10.0,http://www.emknowledge.gov.au/resource/?id=588
591,Bushfire - Southern Queensland,Bushfire,2011,2010,8/1/2011 0:00,10/31/2011 0:00,-25.48295021,151.2158203,Queensland,0.0,0.0,0.0,0.0,0.0,0.0,0.0,0.0,http://www.emknowledge.gov.au/resource/?id=591
592,Bushfire - Mount Lofty Ranges,Bushfire,1980,1980,2/20/1980 0:00,2/20/1980 0:00,-35.00764465,138.7087402,South Australia,0.0,0.0,0.0,0.0,13000000.0,51.0,1.0,104.0,http://www.emknowledge.gov.au/resource/?id=592
594,"Severe Storm - Melbourne, December 2011",Severe Storm,2011,2010,12/25/2011 0:00,12/26/2011 0:00,-37.71207047,145.1486206,Victoria,0.0,0.0,0.0,0.0,728640000.0,0.0,0.0,0.0,http://www.emknowledge.gov.au/resource/?id=594
602,Environmental - South Australia and Victoria Heatwave,Environmental,2011,2010,12/30/2011 0:00,1/4/2012 0:00,-34.12544632,140.9765625,South Australia,0.0,45.0,0.0,0.0,0.0,0.0,0.0,90.0,http://www.emknowledge.gov.au/resource/?id=602
608,Hail - Adelaide,Hail,1991,1990,1/22/1991 0:00,1/22/1991 0:00,-34.9287262,138.5999451,South Australia,0.0,0.0,0.0,0.0,30000000.0,0.0,0.0,0.0,http://www.emknowledge.gov.au/resource/?id=608
609,Flood - Murray River,Flood,1956,1950,6/8/1956 0:00,12/1/1956 0:00,-34.91437912,139.3115845,South Australia,0.0,0.0,0.0,0.0,0.0,0.0,0.0,0.0,http://www.emknowledge.gov.au/resource/?id=609
610,Environmental - Heatwave Oodnadatta,Environmental,1959,1950,12/31/1959 0:00,1/3/1960 0:00,-27.51801491,135.43396,South Australia,13.0,18.0,0.0,0.0,0.0,0.0,0.0,166.0,http://www.emknowledge.gov.au/resource/?id=610
612,Flood - New South Wales - 2012,Flood,2012,2010,1/24/2012 0:00,3/13/2012 0:00,-30.29301643,153.1159363,New South Wales,3.0,0.0,0.0,0.0,108212000.0,0.0,0.0,30.0,http://www.emknowledge.gov.au/resource/?id=612
613,Flood - Queensland Jan 2012,Flood,2012,2010,1/24/2012 0:00,3/13/2012 0:00,-23.51173782,148.1609344,Queensland,2.0,0.0,0.0,0.0,124688000.0,0.0,0.0,20.0,http://www.emknowledge.gov.au/resource/?id=613
615,Flood - Victoria February 2012,Flood,2012,2010,2/26/2012 0:00,3/15/2012 0:00,-36.12789154,141.9927979,Victoria,0.0,0.0,0.0,0.0,108212000.0,0.0,0.0,0.0,http://www.emknowledge.gov.au/resource/?id=615
616,Cyclone Herbie,Cyclone,1988,1980,5/21/1988 0:00,5/22/1988 0:00,-24.88456726,113.6291885,Western Australia,0.0,0.0,0.0,0.0,20000000.0,0.0,0.0,0.0,http://www.emknowledge.gov.au/resource/?id=616
617,Environmental - Heatwave Dec 1907,Environmental,1907,1900,12/1/1907 0:00,2/28/1908 0:00,-27.47077179,153.0236359,Northern Territory;Queensland;New South Wales;Australian Capital Territory;South Australia;Western Australia;Tasmania;Victoria,246.0,0.0,0.0,0.0,0.0,0.0,0.0,2460.0,http://www.emknowledge.gov.au/resource/?id=617
619,Environmental - Heatwave Dec 1913,Environmental,1913,1910,12/1/1913 0:00,2/28/1914 0:00,-30.47708321,136.9116211,Queensland;New South Wales;Australian Capital Territory;South Australia;Western Australia;Northern Territory;Tasmania;Victoria,122.0,0.0,0.0,0.0,0.0,0.0,0.0,1220.0,http://www.emknowledge.gov.au/resource/?id=619
620,Environmental - Heatwave Dec 1920,Environmental,1920,1920,12/1/1920 0:00,2/28/1921 0:00,-34.63772964,143.5528564,Queensland;New South Wales;Australian Capital Territory;South Australia;Western Australia;Northern Territory;Tasmania;Victoria,147.0,0.0,0.0,0.0,0.0,0.0,0.0,1470.0,http://www.emknowledge.gov.au/resource/?id=620
621,Environmental - Heatwave Dec 1938,Environmental,1938,1930,12/1/1938 0:00,2/28/1939 0:00,-37.80978394,144.9536133,Queensland;New South Wales;Australian Capital Territory;South Australia;Western Australia;Northern Territory;Tasmania;Victoria,438.0,0.0,0.0,0.0,0.0,0.0,0.0,4380.0,http://www.emknowledge.gov.au/resource/?id=621
622,Environmental - Heatwave Dec 1939,Environmental,1939,1930,12/1/1939 0:00,2/28/1940 0:00,-23.55391693,148.1561279,Queensland;New South Wales;Australian Capital Territory;South Australia;Western Australia;Northern Territory;Tasmania;Victoria,112.0,0.0,0.0,0.0,0.0,0.0,0.0,1120.0,http://www.emknowledge.gov.au/resource/?id=622
623,Environmental - Heatwave Dec 1959,Environmental,1959,1950,12/1/1959 0:00,2/28/1960 0:00,-27.47103882,153.0231934,Queensland;New South Wales;Australian Capital Territory;South Australia;Western Australia;Northern Territory;Tasmania;Victoria,98.0,0.0,0.0,0.0,0.0,0.0,0.0,980.0,http://www.emknowledge.gov.au/resource/?id=623
624,Environmental - Heatwave Dec 1972,Environmental,1972,1970,12/1/1972 0:00,2/28/1973 0:00,-34.20612335,142.1361389,Queensland;New South Wales;Australian Capital Territory;South Australia;Western Australia;Northern Territory;Tasmania;Victoria,99.0,0.0,0.0,0.0,0.0,0.0,0.0,990.0,http://www.emknowledge.gov.au/resource/?id=624
625,Environmental - Heatwave Dec 1926,Environmental,1926,1920,12/1/1926 0:00,2/28/1927 0:00,-33.87330246,151.2070618,Queensland;New South Wales;Australian Capital Territory;South Australia;Western Australia;Northern Territory;Tasmania;Victoria,130.0,0.0,0.0,0.0,0.0,0.0,0.0,1300.0,http://www.emknowledge.gov.au/resource/?id=625
627,Bushfire - Canberra 2003,Bushfire,2003,2000,1/18/2003 0:00,1/19/2003 0:00,-35.34656525,149.035675,Australian Capital Territory,4.0,435.0,0.0,0.0,350000000.0,488.0,0.0,1886.0,http://www.emknowledge.gov.au/resource/?id=627
2029,Flood - Gippsland June 2012,Flood,2012,2010,6/4/2012 15:48,6/22/2012 15:48,-38.20797348,146.7443848,Victoria,0.0,0.0,0.0,0.0,0.0,0.0,0.0,0.0,http://www.emknowledge.gov.au/resource/?id=2029
2118,Severe Storm - Perth and Southern Western Australia,Severe Storm,2012,2010,6/7/2012 15:13,6/13/2012 15:13,-31.95048714,115.8570099,Western Australia,1.0,0.0,0.0,0.0,0.0,0.0,0.0,10.0,http://www.emknowledge.gov.au/resource/?id=2118
2799,Landslide - Gracetown,Landslide,1996,1990,9/27/1996 14:50,9/27/1996 14:50,-33.85794449,114.9841995,Western Australia,9.0,3.0,0.0,0.0,0.0,0.0,0.0,96.0,http://www.emknowledge.gov.au/resource/?id=2799
3159,Bushfire - Mt Ku-ring-gai,Bushfire,2000,2000,6/8/2000 14:32,6/8/2000 14:32,-33.65177917,151.1330872,New South Wales,4.0,3.0,0.0,0.0,0.0,0.0,0.0,46.0,http://www.emknowledge.gov.au/resource/?id=3159
3301,"Flood - Warmun, Kimberley",Flood,2011,2010,3/10/2011 9:24,3/14/2011 9:24,-17.01690102,128.2159424,Western Australia,0.0,0.0,0.0,0.0,0.0,76.0,0.0,152.0,http://www.emknowledge.gov.au/resource/?id=3301
3315,Environmental - The Big Dry,Environmental,1996,1990,1/1/1996 13:39,4/1/2012 13:39,-28.61345863,148.8867188,Queensland;New South Wales;Australian Capital Territory;Victoria;South Australia;Western Australia;Outside Australia;Northern Territory;Tasmania,0.0,0.0,0.0,0.0,0.0,0.0,0.0,0.0,http://www.emknowledge.gov.au/resource/?id=3315
3413,Bushfire - Dunalley - Jan 2013,Bushfire,2013,2010,1/3/2013 13:49,1/14/2013 13:49,-42.87797546,147.8100586,Tasmania,1.0,0.0,1000.0,0.0,87100000.0,203.0,212.0,890.0,http://www.emknowledge.gov.au/resource/?id=3413
3437,"Bushfire - Coonabarabran, New South Wales 2013",Bushfire,2013,2010,1/7/2013 14:41,1/20/2013 14:41,-31.28676605,149.2005157,New South Wales,0.0,1.0,0.0,0.0,35000000.0,51.0,0.0,104.0,http://www.emknowledge.gov.au/resource/?id=3437
3487,"Cyclone Oswald, Queensland & New South Wales, 2013",Cyclone,2013,2010,1/21/2013 9:49,1/29/2013 9:49,-24.86587906,152.3446655,Queensland;New South Wales,6.0,0.0,9000.0,0.0,1098000000.0,0.0,0.0,510.0,http://www.emknowledge.gov.au/resource/?id=3487
3575,Tornado - Murray River Townships,Tornado,2013,2010,3/21/2013 11:31,3/21/2013 11:31,-35.88181686,145.5750275,New South Wales;Victoria,0.0,24.0,0.0,0.0,0.0,0.0,24.0,96.0,http://www.emknowledge.gov.au/resource/?id=3575
4163,Tornado - Bundaberg region,Tornado,2013,2010,1/26/2013 0:00,1/26/2013 0:00,-24.8135376,152.4643097,Queensland,0.0,20.0,0.0,0.0,0.0,0.0,0.0,40.0,http://www.emknowledge.gov.au/resource/?id=4163
4165,Hail - Sydney Nov 1976,Hail,1976,1970,11/10/1976 0:00,11/10/1976 0:00,-33.86086655,151.0230408,New South Wales,0.0,10.0,0.0,0.0,40000000.0,0.0,0.0,20.0,http://www.emknowledge.gov.au/resource/?id=4165
4166,Flood - Gawler River 2005,Flood,2005,2000,11/8/2005 0:00,11/8/2005 0:00,-34.64535522,138.5066986,South Australia,0.0,0.0,0.0,0.0,0.0,0.0,0.0,0.0,http://www.emknowledge.gov.au/resource/?id=4166
4212,Envionmental - National Heatwave,Environmental,2012,2010,12/27/2012 0:00,1/19/2013 0:00,-25.24469566,133.59375,Queensland;New South Wales;Victoria;South Australia;Western Australia,0.0,240.0,0.0,0.0,0.0,0.0,0.0,480.0,http://www.emknowledge.gov.au/resource/?id=4212
4470,Environmental - Sydney Bushfire Pollution,Environmental,2013,2010,10/22/2013 0:00,11/9/2013 0:00,-33.9127388,151.2414856,New South Wales,0.0,228.0,0.0,0.0,0.0,0.0,0.0,456.0,http://www.emknowledge.gov.au/resource/?id=4470
4674,Flood - Hughenden 1917,Flood,1917,1910,1/1/1917 0:00,1/6/1917 0:00,-20.82736778,144.2010498,Queensland,5.0,0.0,0.0,0.0,0.0,0.0,0.0,50.0,http://www.emknowledge.gov.au/resource/?id=4674
4781,Bushfire - New South Wales 2013,Bushfire,2013,2010,10/13/2013 0:00,11/13/2013 0:00,-33.64834976,150.3664398,New South Wales,2.0,0.0,0.0,0.0,183400000.0,200.0,0.0,420.0,http://www.emknowledge.gov.au/resource/?id=4781
4790,"Bushfire - Perth Hills, January 2014",Bushfire,2014,2010,1/11/2014 10:27,1/14/2014 10:27,-31.87464142,116.1416245,Western Australia,1.0,0.0,0.0,0.0,15000000.0,52.0,0.0,114.0,http://www.emknowledge.gov.au/resource/?id=4790
4946,"Bushfire - Grampians National Park, Victoria, 2014",Bushfire,2014,2010,1/15/2014 10:59,1/21/2014 10:59,-37.12911987,142.5196228,Victoria,0.0,0.0,0.0,0.0,0.0,0.0,30.0,60.0,http://www.emknowledge.gov.au/resource/?id=4946
4960,"Environmental - Heatwave, South-Eastern Australia, 2014",Environmental,2014,2010,1/11/2014 0:00,1/21/2014 0:00,-33.28461838,140.9765625,Queensland;New South Wales;Victoria;South Australia;Western Australia;Tasmania,0.0,0.0,0.0,0.0,0.0,0.0,0.0,0.0,http://www.emknowledge.gov.au/resource/?id=4960
5013,"Flood - Gascoyne River, Western Australia, 2010",Flood,2010,2010,12/16/2010 0:00,12/20/2010 0:00,-24.83908844,113.7496948,Queensland,0.0,0.0,0.0,0.0,0.0,0.0,0.0,0.0,http://www.emknowledge.gov.au/resource/?id=5013
5015,"Bushfire - Victoria, 2014",Bushfire,2014,2010,2/9/2014 11:23,2/14/2014 11:23,-37.56471634,144.8931885,Victoria,0.0,3.0,0.0,0.0,0.0,40.0,0.0,86.0,http://www.emknowledge.gov.au/resource/?id=5015
